{
  "campaign1": {
    "city": "Nashville",
    "dmEmail": "user1@home.com",
    "dmName": "Hillary Swank",
    "imgUrl": "https://firebasestorage.googleapis.com/v0/b/rpg-locator.appspot.com/o/campaigns%2Fcovers%2FCoS.png?alt=media&token=d2960379-9259-4835-af0e-ff45ef9fad49",
    "lat": 86.76547,
    "lng": -76.876544,
    "notes": "Under raging storm clouds, the vampire Count Strahd von Zarovich stands silhouetted against the ancient walls of Castle Ravenloft. Rumbling thunder pounds the castle spires. The windâ€™s howling increases as he turns his gaze down toward the village of Barovia.",
    "playersNeeded": 3,
    "state": "Tennessee",
    "street1": "6814 Charlotte Pike",
    "street2": "",
    "title": "Curse of Strahd",
    "uid": "WSXd82aWoEM0m9B1vH5k64K8AFG3",
    "zipcode": "37209"
  },
  "campaign2": {
    "city": "Franklin",
    "dmEmail": "user2@home.com",
    "dmName": "Michael Jordon",
    "imgUrl": "https://firebasestorage.googleapis.com/v0/b/rpg-locator.appspot.com/o/campaigns%2Fcovers%2FSKT.jpg?alt=media&token=d0f8a7b4-bb42-48e0-aa29-90232c06cdc9",
    "lat": 86.76547,
    "lng": -76.876544,
    "notes": "The only thing you have to fear, is fear itself",
    "playersNeeded": 2,
    "state": "Tennessee",
    "street1": "236 Second Ave South",
    "street2": "",
    "title": "Storm Kings Thunder",
    "uid": "12345",
    "zipcode": "90210"
  },
  "campaign3": {
    "city": "Franklin",
    "dmEmail": "user2@home.com",
    "dmName": "Michael Jordon",
    "imgUrl": "https://firebasestorage.googleapis.com/v0/b/rpg-locator.appspot.com/o/campaigns%2Fcovers%2FSKT.jpg?alt=media&token=d0f8a7b4-bb42-48e0-aa29-90232c06cdc9",
    "lat": 86.76547,
    "lng": -76.876544,
    "notes": "The only thing you have to fear, is fear itself",
    "playersNeeded": 2,
    "state": "Tennessee",
    "street1": "236 Second Ave South",
    "street2": "",
    "title": "Storm Kings Thunder",
    "uid": "12345",
    "zipcode": "90210"
  },
  "campaign4": {
    "city": "Brentwood",
    "dmEmail": "jimmy@typo.com",
    "dmName": "Donald Trump",
    "imgUrl": "https://firebasestorage.googleapis.com/v0/b/rpg-locator.appspot.com/o/campaigns%2Fcovers%2FToA.jpg?alt=media&token=e1fca638-846d-4adc-9ec1-7ba299cbabed",
    "lat": 86.76547,
    "lng": -76.876544,
    "notes": "The only thing you have to fear, is fear itself",
    "playersNeeded": 2,
    "state": "Tennessee",
    "street1": "236 Second Ave South",
    "street2": "",
    "title": "Tomb of Annihilation",
    "uid": "WSXd82aWoEM0m9B1vH5k64K8AFG3",
    "zipcode": "37212"
  }
}
